[
  {
    "id": "sightglass-coffee",
    "name": "Sightglass Coffee",
    "neighborhood": "soma",
    "address": "270 7th St, San Francisco, CA",
    "lat": 37.7785,
    "lng": -122.4061,
    "scores": { "wifi": 3.6, "outlets": 2.8, "noise": "moderate", "aesthetic": 4.8, "overall": 4.0 },
    "tags": ["warehouse space", "espresso bar", "good tables"],
    "hours": "Mon-Fri 7am-5pm, Sat-Sun 8am-5pm",
    "sources": { "reddit": [] },
    "lastUpdated": "2026-06-16T00:00:00.000Z"
  },
  {
    "id": "ritual-coffee-valencia",
    "name": "Ritual Coffee Roasters",
    "neighborhood": "mission",
    "address": "1026 Valencia St, San Francisco, CA",
    "lat": 37.7619,
    "lng": -122.4215,
    "scores": { "wifi": 3.8, "outlets": 2.9, "noise": "lively", "aesthetic": 4.4, "overall": 3.8 },
    "tags": ["Valencia classic", "busy", "strong coffee"],
    "hours": "Daily 7am-6pm",
    "sources": { "reddit": [] },
    "lastUpdated": "2026-06-16T00:00:00.000Z"
  },
  {
    "id": "equator-coffees-hayes",
    "name": "Equator Coffees",
    "neighborhood": "hayes-valley",
    "address": "222 2nd St, San Francisco, CA",
    "lat": 37.7762,
    "lng": -122.4248,
    "scores": { "wifi": 3.9, "outlets": 3.2, "noise": "moderate", "aesthetic": 4.1, "overall": 3.9 },
    "tags": ["bright", "reliable", "quick meetings"],
    "hours": "Daily 7am-5pm",
    "sources": { "reddit": [] },
    "lastUpdated": "2026-06-16T00:00:00.000Z"
  },
  {
    "id": "four-barrel-coffee",
    "name": "Four Barrel Coffee",
    "neighborhood": "mission",
    "address": "375 Valencia St, San Francisco, CA",
    "lat": 37.7643,
    "lng": -122.4218,
    "scores": { "wifi": 2.8, "outlets": 2.4, "noise": "lively", "aesthetic": 4.5, "overall": 3.4 },
    "tags": ["spacious", "noisy peak", "coffee focused"],
    "hours": "Daily 7am-6pm",
    "sources": { "reddit": [] },
    "lastUpdated": "2026-06-16T00:00:00.000Z"
  },
  {
    "id": "linea-caffe",
    "name": "Linea Caffe",
    "neighborhood": "mission",
    "address": "3417 18th St, San Francisco, CA",
    "lat": 37.763,
    "lng": -122.421,
    "scores": { "wifi": 3.3, "outlets": 2.7, "noise": "moderate", "aesthetic": 4.3, "overall": 3.6 },
    "tags": ["espresso", "small footprint", "patio"],
    "hours": "Daily 7am-5pm",
    "sources": { "reddit": [] },
    "lastUpdated": "2026-06-16T00:00:00.000Z"
  },
  {
    "id": "tartine-manufactory",
    "name": "Tartine Manufactory",
    "neighborhood": "mission",
    "address": "595 Alabama St, San Francisco, CA",
    "lat": 37.7593,
    "lng": -122.4158,
    "scores": { "wifi": 3.0, "outlets": 2.2, "noise": "lively", "aesthetic": 4.7, "overall": 3.5 },
    "tags": ["bakery", "large tables", "food"],
    "hours": "Daily 8am-5pm",
    "sources": { "reddit": [] },
    "lastUpdated": "2026-06-16T00:00:00.000Z"
  },
  {
    "id": "verve-coffee-sf",
    "name": "Verve Coffee Roasters",
    "neighborhood": "soma",
    "address": "2101 Market St, San Francisco, CA",
    "lat": 37.779,
    "lng": -122.3966,
    "scores": { "wifi": 3.7, "outlets": 3.1, "noise": "moderate", "aesthetic": 4.5, "overall": 3.9 },
    "tags": ["modern", "natural light", "work blocks"],
    "hours": "Daily 7am-5pm",
    "sources": { "reddit": [] },
    "lastUpdated": "2026-06-16T00:00:00.000Z"
  },
  {
    "id": "blue-bottle-soma",
    "name": "Blue Bottle Coffee SoMa",
    "neighborhood": "soma",
    "address": "66 Mint St, San Francisco, CA",
    "lat": 37.779,
    "lng": -122.403,
    "scores": { "wifi": 3.4, "outlets": 2.6, "noise": "moderate", "aesthetic": 4.2, "overall": 3.6 },
    "tags": ["central", "minimal", "short sessions"],
    "hours": "Daily 7am-6pm",
    "sources": { "reddit": [] },
    "lastUpdated": "2026-06-16T00:00:00.000Z"
  },
  {
    "id": "caffe-vita-mission",
    "name": "Caffe Vita Mission",
    "neighborhood": "mission",
    "address": "1246 Valencia St, San Francisco, CA",
    "lat": 37.7631,
    "lng": -122.4204,
    "scores": { "wifi": 3.5, "outlets": 3.0, "noise": "moderate", "aesthetic": 4.0, "overall": 3.7 },
    "tags": ["neighborhood", "steady", "good seating"],
    "hours": "Daily 7am-5pm",
    "sources": { "reddit": [] },
    "lastUpdated": "2026-06-16T00:00:00.000Z"
  },
  {
    "id": "dandelion-chocolate",
    "name": "Dandelion Chocolate",
    "neighborhood": "mission",
    "address": "740 Valencia St, San Francisco, CA",
    "lat": 37.7599,
    "lng": -122.4176,
    "scores": { "wifi": 3.2, "outlets": 2.5, "noise": "moderate", "aesthetic": 4.6, "overall": 3.6 },
    "tags": ["dessert", "warm interior", "date work"],
    "hours": "Daily 10am-6pm",
    "sources": { "reddit": [] },
    "lastUpdated": "2026-06-16T00:00:00.000Z"
  },
  {
    "id": "coffee-mission",
    "name": "Coffee Mission",
    "neighborhood": "mission",
    "address": "2468 Mission St, San Francisco, CA",
    "lat": 37.761,
    "lng": -122.4197,
    "scores": { "wifi": 3.6, "outlets": 3.2, "noise": "quiet", "aesthetic": 3.6, "overall": 3.7 },
    "tags": ["low-key", "quiet pockets", "laptop friendly"],
    "hours": "Daily 7am-5pm",
    "sources": { "reddit": [] },
    "lastUpdated": "2026-06-16T00:00:00.000Z"
  },
  {
    "id": "stanza-coffee",
    "name": "Stanza Coffee & Bar",
    "neighborhood": "soma",
    "address": "312 6th St, San Francisco, CA",
    "lat": 37.7827,
    "lng": -122.4046,
    "scores": { "wifi": 3.3, "outlets": 2.8, "noise": "moderate", "aesthetic": 3.9, "overall": 3.5 },
    "tags": ["bar feel", "evening option", "casual"],
    "hours": "Daily 8am-7pm",
    "sources": { "reddit": [] },
    "lastUpdated": "2026-06-16T00:00:00.000Z"
  },
  {
    "id": "philz-coffee-mission",
    "name": "Philz Coffee Mission",
    "neighborhood": "mission",
    "address": "3101 24th St, San Francisco, CA",
    "lat": 37.7571,
    "lng": -122.4134,
    "scores": { "wifi": 3.8, "outlets": 3.1, "noise": "lively", "aesthetic": 3.8, "overall": 3.7 },
    "tags": ["reliable wifi", "busy", "big tables"],
    "hours": "Daily 6am-6pm",
    "sources": { "reddit": [] },
    "lastUpdated": "2026-06-16T00:00:00.000Z"
  },
  {
    "id": "canvas-cafe",
    "name": "Canvas Cafe",
    "neighborhood": "mission",
    "address": "1200 Valencia St, San Francisco, CA",
    "lat": 37.765,
    "lng": -122.423,
    "scores": { "wifi": 3.1, "outlets": 2.6, "noise": "quiet", "aesthetic": 4.0, "overall": 3.4 },
    "tags": ["calm", "creative crowd", "reading"],
    "hours": "Daily 8am-5pm",
    "sources": { "reddit": [] },
    "lastUpdated": "2026-06-16T00:00:00.000Z"
  }
]

